[
  {
    "name": "Dining Hall 1",
    "lat": "28.524562",
    "lng": "77.5723814",
    "time": {
      "from": "",
      "to": ""
    },
    "mail": "",
    "phone": ""
  },
  {
    "name": "Dining Hall 2",
    "lat": "28.524562",
    "lng": "77.5723814",
    "time": {
      "from": "",
      "to": ""
    },
    "mail": "",
    "phone": ""
  },
  {
    "name": "Dining Hall 3",
    "lat": "28.523299212793766",
    "lng": "77.56971675114971",
    "time": {
      "from": "",
      "to": ""
    },
    "mail": "",
    "phone": ""
  },
  {
    "name": "Nescafe",
    "lat": "28.5251485",
    "lng": "77.5728984",
    "time": {
      "from": "",
      "to": ""
    },
    "mail": "",
    "phone": ""
  },
  {
    "name": "Naveen Tea House",
    "lat": "28.525303785110264",
    "lng": "77.57628113780584",
    "time": {
      "from": "",
      "to": ""
    },
    "mail": "",
    "phone": ""
  },
  {
    "name": "Surya Food and beverages",
    "lat": "28.52538480649292",
    "lng": "77.57618139344787",
    "time": {
      "from": "",
      "to": ""
    },
    "mail": "",
    "phone": ""
  },
  {
    "name": "Swad Kathi roll",
    "lat": "28.525298790416425",
    "lng": "77.5761941339412",
    "time": {
      "from": "",
      "to": ""
    },
    "mail": "",
    "phone": ""
  },
  {
    "name": "Rama Enterprise (Shakes)",
    "lat": "28.525410139981528",
    "lng": "77.576112326563",
    "time": {
      "from": "",
      "to": ""
    },
    "mail": "",
    "phone": ""
  },
  {
    "name": "The Adda",
    "lat": "28.5260824",
    "lng": "77.5770077",
    "time": {
      "from": "",
      "to": ""
    },
    "mail": "",
    "phone": ""
  },
  {
    "name": "The Anna Cafe",
    "lat": "28.5260824",
    "lng": "77.5770077",
    "time": {
      "from": "",
      "to": ""
    },
    "mail": "",
    "phone": ""
  },
  {
    "name": "Mahesh Fast Food",
    "lat": "28.5347241",
    "lng": "77.5750717",
    "time": {
      "from": "",
      "to": ""
    },
    "mail": "",
    "phone": ""
  },
  {
    "name": "Adarsh Dhaba",
    "lat": "28.534833",
    "lng": "77.5741563",
    "time": {
      "from": "",
      "to": ""
    },
    "mail": "",
    "phone": ""
  },
  {
    "name": "19th Hole",
    "lat": "28.529698",
    "lng": "77.574557",
    "time": {
      "from": "",
      "to": ""
    },
    "mail": "",
    "phone": ""
  }
]
